{
    "Restaurants": [
        {
            "Name": "restautant1",
            "Location": "Tbilisi,Nutsubidze 72",
            "Country": "Georgia",
            "City": "Tbilisi",
            "Street": "Nutsubidze",
            "Number": "72",
            "Start": 2
        },
        {
            "Name": "restautant2",
            "Location": "Tbilisi,Nutsubidze 72",
            "Country": "Georgia",
            "City": "Tbilisi",
            "Street": "Nutsubidze",
            "Number": "72",
            "Start": 2
        },
        {
            "Name": "restautant3",
            "Location": "Tbilisi,Nutsubidze 72",
            "Country": "Georgia",
            "City": "Tbilisi",
            "Street": "Nutsubidze",
            "Number": "72",
            "Start": 2
        },
        {
            "Name": "restautant4",
            "Location": "Tbilisi,Nutsubidze 72",
            "Country": "Georgia",
            "City": "Tbilisi",
            "Street": "Nutsubidze",
            "Number": "72",
            "Start": 2
        },
        {
            "Name": "restautant5",
            "Location": "Tbilisi,Nutsubidze 72",
            "Country": "Georgia",
            "City": "Tbilisi",
            "Street": "Nutsubidze",
            "Number": "72",
            "Start": 2
        },
        {
            "Name": "restautant6",
            "Location": "Tbilisi,Nutsubidze 72",
            "Country": "Georgia",
            "City": "Tbilisi",
            "Street": "Nutsubidze",
            "Number": "72",
            "Start": 2
        },
        {
            "Name": "restautant7",
            "Location": "Tbilisi,Nutsubidze 72",
            "Country": "Georgia",
            "City": "Tbilisi",
            "Street": "Nutsubidze",
            "Number": "72",
            "Start": 2
        },
        {
            "Name": "restautant8",
            "Location": "Tbilisi,Nutsubidze 72",
            "Country": "Georgia",
            "City": "Tbilisi",
            "Street": "Nutsubidze",
            "Number": "72",
            "Start": 2
        }
    ]
}